[{"name":"Cascais","longitude":-9.421756,"latitude":38.697277}, {"name":"Funchal","longitude":-16.92547,"latitude":32.66568}, {"name":"Lisboa","longitude":-9.142685,"latitude":38.736946}, {"name":"Barcelona","longitude":2.154007,"latitude":41.390205}, {"name":"Valencia","longitude":-0.375,"latitude":39.466667}, {"name":"Torremolinos","longitude":-4.500273,"latitude":36.621787}, {"name":"Pontevedra","longitude":-8.64435,"latitude":42.431}]